id,name,latitude,longitude
1,Jeremy Taylor,-6.26426037,106.8452459
2,Helen Howell,-6.2839394,106.68179611
3,Marie Black,-6.19048278,106.75326964
4,Elizabeth Jacobs,-6.29190725,106.65996359
5,Sara Bennett,-6.36206216,106.82501077
6,Martha Adams,-6.20597295,106.84989687
7,Larry Harrison,-6.24886879,106.75395158
8,Angela Diaz,-6.31877098,106.80540173
9,David Lewis,-6.14064528,106.77360544
10,Jonathan Dunn,-6.2250577,106.74207112
11,Charles Watson,-6.16817308,106.81253172
12,Kelly Graham,-6.35148906,106.84679573
13,Joshua Woods,-6.23604668,106.68163038
14,Laura Washington,-6.16566918,106.89222472
15,Jose Freeman,-6.1934487,106.76969768
16,Johnny Butler,-6.3279842,106.81655673
17,Carlos Wells,-6.21085101,106.75122044
18,Christina Wilson,-6.34798273,106.7369944
19,Ann Little,-6.31590471,106.69713083
20,Amy Davis,-6.26771789,106.76682078
21,Aaron Owens,-6.25905948,106.91307319
22,William Myers,-6.18253146,106.72514913
23,Clarence Ray,-6.33352825,106.77760404
24,Carl Hunt,-6.35768726,106.71920839
25,Linda Welch,-6.30223438,106.85881056
26,Ashley Banks,-6.17929694,106.76314822
27,Kathy Richards,-6.25176879,106.88331914
28,Janice Brooks,-6.12921116,106.74421283
29,Joe Romero,-6.32101269,106.74077898
30,Bobby Williams,-6.27086464,106.86938848
31,Maria Hunt,-6.22686261,106.8196812
32,Ryan Kelly,-6.13217821,106.858244
33,Eric Schmidt,-6.20068681,106.78737563
34,Jonathan Andrews,-6.27153824,106.82710598
35,Christina Johnson,-6.25464791,106.77798842
36,Edward Willis,-6.17194995,106.87510132
37,Norma Fields,-6.163064,106.78813715
38,Martin Coleman,-6.23164535,106.90249195
39,Patricia Ellis,-6.35870868,106.71224565
40,Janice Ortiz,-6.25161621,106.88857251
41,Julie Ramirez,-6.2997143,106.85942983
42,Bonnie Cox,-6.18117149,106.79821623
43,Arthur White,-6.21222985,106.6746037
44,Joseph Cunningham,-6.32489114,106.83444773
45,Steven Henderson,-6.18657278,106.73773497
46,Karen Hart,-6.32870326,106.86684163
47,Julia Lewis,-6.35145485,106.85292896
48,Chris Wallace,-6.24108998,106.81176072
49,Kathy Foster,-6.1479495,106.76181626
50,Christina Medina,-6.13944522,106.78456618
51,Judith Chapman,-6.32236766,106.82348513
52,Juan Cunningham,-6.29794898,106.72041873
53,Norma Baker,-6.35849831,106.80585715
54,Robin Foster,-6.36171087,106.83235249
55,Catherine Alexander,-6.14341384,106.83553465
56,Bruce Thomas,-6.36592049,106.77733727
57,Paula Welch,-6.2004506,106.76254719
58,Phillip Morrison,-6.16916462,106.8465122
59,Lori Jones,-6.3423182,106.86286318
60,Martin Hall,-6.21078474,106.91279566
61,Amanda Ramirez,-6.31178021,106.68957075
62,Jean Cox,-6.25343334,106.69962438
63,Martha Weaver,-6.19507576,106.7178528
64,Andrew Lane,-6.18364826,106.74500725
65,Christine Shaw,-6.3112983,106.77012399
66,Kimberly Mills,-6.34050319,106.86869012
67,Ruby Medina,-6.26460454,106.67207602
68,Stephanie Greene,-6.33222297,106.87713633
69,Deborah Bishop,-6.32910567,106.72165922
70,Joseph Webb,-6.29610096,106.87266325
71,Kevin Jackson,-6.18583641,106.86228197
72,Joseph James,-6.14138429,106.7001234
73,Teresa Perez,-6.23384733,106.81997412
74,John Murphy,-6.20657008,106.73003861
75,Amanda Bennett,-6.26069785,106.82534117
76,Tammy Mills,-6.21230115,106.76097329
77,Peter Ray,-6.20037039,106.8013551
78,Kenneth Stevens,-6.2476122,106.75586382
79,Justin Thomas,-6.31075683,106.70423852
80,Michael Davis,-6.20685345,106.69084187
81,Anna Cruz,-6.25918358,106.77765601
82,George Matthews,-6.26703991,106.89637321
83,Kimberly Garrett,-6.25155619,106.75919821
84,Virginia Owens,-6.27284359,106.91143142
85,Carolyn Cox,-6.26856045,106.81924175
86,Edward Coleman,-6.17389839,106.8430483
87,Martin Lee,-6.12041818,106.81151152
88,Kathleen King,-6.23944038,106.83606364
89,Brian Wells,-6.23956158,106.84555405
90,Kevin Reid,-6.13644512,106.77111487
91,Angela Cruz,-6.37017177,106.7734718
92,Helen Harvey,-6.21589478,106.81015399
93,Doris Hill,-6.19302652,106.7951016
94,Judith Martinez,-6.29007332,106.74325994
95,Amy Adams,-6.325596,106.73029429
96,Justin Parker,-6.16015785,106.83590198
97,Steve Harris,-6.33300345,106.78681926
98,Thomas Wheeler,-6.36533074,106.8216867
99,Aaron Burton,-6.24980433,106.69370287
100,Pamela Walker,-6.32317002,106.77406089
101,Douglas Fuller,-6.20990926,106.85928412
102,Tammy Henderson,-6.25394233,106.75459694
103,Harold Thompson,-6.217682,106.81387064
104,Roy Price,-6.19350823,106.77832382
105,Thomas Wells,-6.19731366,106.78165495
106,Amanda Torres,-6.27475609,106.76347138
107,Rebecca Porter,-6.27226969,106.88640138
108,Ryan Bennett,-6.14296018,106.79201798
109,Sarah Jacobs,-6.25637257,106.89554102
110,Paula Bishop,-6.13521326,106.84621054
111,Keith Brooks,-6.32036052,106.78449794
112,William Crawford,-6.33893882,106.77544609
113,Kathryn Russell,-6.17159444,106.73783547
114,Arthur Cox,-6.28355795,106.82742047
115,Philip Hughes,-6.2249213,106.65116031
116,Linda Reid,-6.29859952,106.6650255
117,Howard Oliver,-6.24881354,106.8608669
118,Amy Gonzalez,-6.20003284,106.78621954
119,Jonathan Rose,-6.18285446,106.68047043
120,Dorothy Gibson,-6.26508577,106.68583795
121,Betty Jackson,-6.19721544,106.74929535
122,Roger Kennedy,-6.27398268,106.82132164
123,Shirley Cole,-6.34809318,106.76991925
124,Jean Kelly,-6.21246163,106.66879255
125,Sandra Powell,-6.22151136,106.68292406
126,Christopher Greene,-6.30291742,106.70950399
127,Brenda Romero,-6.23231263,106.72964303
128,Bonnie Bishop,-6.32698175,106.82723129
129,Kenneth Foster,-6.28174663,106.83585882
130,Carolyn Hansen,-6.14961172,106.74176453
131,Steven Morrison,-6.33338674,106.81969764
132,Philip Banks,-6.20310338,106.89577219
133,Elizabeth Grant,-6.23616261,106.78175616
134,Justin Mitchell,-6.15637569,106.86462743
135,Tina Banks,-6.17530025,106.82585713
136,Joe Ferguson,-6.13415785,106.81766105
137,Douglas Thomas,-6.2417193,106.9159747
138,Juan Simmons,-6.21185265,106.72143566
139,Melissa Kelly,-6.3141762,106.76174319
140,Dennis Gilbert,-6.15825474,106.76873618
141,Bonnie Evans,-6.32368956,106.7497299
142,David Smith,-6.22576879,106.73897284
143,Lawrence Green,-6.17992778,106.73837632
144,Wayne Fowler,-6.2040126,106.90388111
145,Stephen Morgan,-6.14041739,106.75870394
146,Paula Lane,-6.25429439,106.75928938
147,Larry Anderson,-6.19353638,106.8032087
148,Michael Moreno,-6.17818257,106.73427337
149,Norma Fisher,-6.12401843,106.76837183
150,Douglas Ray,-6.21989123,106.69063174
151,Dorothy Hunter,-6.24330001,106.84145339
152,Lisa Gutierrez,-6.23830274,106.65030432
153,Joyce Chapman,-6.28904275,106.79030407
154,Sandra Russell,-6.13722377,106.71845694
155,Matthew Harvey,-6.24777608,106.66193504
156,Brenda Alvarez,-6.36234598,106.71998121
157,Ruby Roberts,-6.23845554,106.88634258
158,Robert White,-6.27031304,106.86809758
159,Frances Perkins,-6.33066371,106.69588807
160,Andrea West,-6.26426918,106.75403015
161,Diane Gonzalez,-6.22492499,106.68441228
162,Nicholas Garza,-6.22350123,106.87641785
163,Samuel Burke,-6.29592479,106.78583071
164,Anna Brown,-6.19736023,106.68036487
165,Anna Cruz,-6.34295316,106.79445189
166,Rebecca Wilson,-6.31583281,106.69999774
167,Martin Gordon,-6.15368739,106.77203616
168,Gregory Davis,-6.30377233,106.80033796
169,Janice Nelson,-6.17331787,106.868098
170,Kathy Spencer,-6.2075721,106.68411368
171,Nicole Grant,-6.34720766,106.76356461
172,Roy Wood,-6.33445545,106.85600639
173,Frank Matthews,-6.22722975,106.85531141
174,Eric Taylor,-6.31083811,106.89273795
175,Phyllis Nichols,-6.28018497,106.90062384
176,Gerald Bailey,-6.20248314,106.7190508
177,Kathy Bennett,-6.2043484,106.87196718
178,Walter Cooper,-6.25592137,106.7346945
179,Paul Perry,-6.20528723,106.78381501
180,Edward Chavez,-6.18521242,106.82156515
181,Christina Gutierrez,-6.17849689,106.85641649
182,Nicole Phillips,-6.27068812,106.81989899
183,Larry Spencer,-6.27753593,106.78601259
184,Paula Ramos,-6.20326446,106.82105669
185,Judith Cox,-6.22104417,106.78334022
186,Judith Hansen,-6.18027163,106.72276705
187,Keith Ray,-6.21028849,106.79140299
188,Julie Jacobs,-6.18447875,106.7897528
189,Eric Bradley,-6.27945289,106.82686537
190,Mildred Jacobs,-6.23525508,106.71669995
191,Brandon Jackson,-6.26772611,106.70572311
192,Theresa Lane,-6.18998329,106.83260349
193,John Baker,-6.2879922,106.84338368
194,Gloria Ward,-6.17196112,106.72034393
195,Gloria Rivera,-6.1834066,106.76677535
196,Ryan Nguyen,-6.14165257,106.77019488
197,Wanda Walker,-6.27579574,106.6723508
198,Angela Burton,-6.23381189,106.775877
199,Antonio Reynolds,-6.33009013,106.82613527
200,Jessica Lynch,-6.35447032,106.80357404
201,Janet Nichols,-6.15887269,106.81727819
202,Antonio Lawson,-6.20138873,106.9051433
203,Joan Garrett,-6.25825988,106.89769924
204,Ernest Jones,-6.15935328,106.88254793
205,Terry Brooks,-6.15623851,106.76936281
206,Chris Weaver,-6.28184907,106.88060265
207,Wanda Harvey,-6.21654278,106.81455728
208,Phillip Garza,-6.24446439,106.82882731
209,Barbara Griffin,-6.27617774,106.67796799
210,Ernest Little,-6.25972058,106.89264106
211,Jane Lawson,-6.17842085,106.76012768
212,Ronald Morrison,-6.31282747,106.81189522
213,Mary Cook,-6.17200258,106.69279711
214,Raymond Gomez,-6.24007477,106.86053271
215,Anne Ramos,-6.12218099,106.77215385
216,Rose Murphy,-6.20939245,106.66109605
217,Roger Andrews,-6.31633313,106.71189308
218,Carol Schmidt,-6.15625109,106.73849161
219,Paula Owens,-6.25919104,106.88107772
220,Susan Walker,-6.33386048,106.85922313
221,Paul Stanley,-6.28550098,106.71705983
222,Virginia Brooks,-6.23503851,106.87274661
223,Benjamin Campbell,-6.28360319,106.66608023
224,Sara Hudson,-6.23798968,106.87445321
225,Anthony Castillo,-6.11828682,106.82173776
226,Carl Fernandez,-6.18978721,106.79933894
227,Beverly Morrison,-6.2129909,106.89322687
228,Alice Carter,-6.16638465,106.82868326
229,Jean Cox,-6.30259492,106.75463571
230,Diana James,-6.32187516,106.7344981
231,Doris Hayes,-6.26632924,106.90559644
232,Anthony Stewart,-6.35164213,106.76068982
233,Julie Sims,-6.23403925,106.7716881
234,Arthur Fox,-6.22476541,106.84607026
235,Jesse Myers,-6.2625975,106.76651
236,Anthony Fields,-6.32093882,106.69721602
237,Jeffrey Fowler,-6.18034873,106.72010042
238,Thomas Little,-6.25088377,106.78252185
239,Jason Spencer,-6.27466084,106.71793599
240,Fred Ray,-6.17136221,106.70524125
241,Dorothy Ortiz,-6.15689784,106.86648264
242,Ruby Murphy,-6.22517849,106.90203041
243,Raymond Daniels,-6.19520289,106.90650447
244,Robert Mills,-6.341933,106.79996743
245,Sara Riley,-6.33602087,106.85609338
246,Mark Kennedy,-6.18070788,106.84412107
247,Douglas Chavez,-6.28317238,106.83089174
248,Juan Jacobs,-6.17802519,106.73098772
249,Marilyn Garza,-6.1148717,106.82408713
250,Martha Bowman,-6.2730365,106.6874906
251,Cheryl Graham,-6.2993092,106.84661493
252,Mildred Foster,-6.17508655,106.87011633
253,Johnny Howell,-6.36058348,106.81437442
254,Jonathan Richardson,-6.13002795,106.77207966
255,Christine Hughes,-6.19824401,106.73706563
256,Keith Nelson,-6.29169841,106.84031904
257,Wanda Palmer,-6.13562484,106.72353884
258,Ruby Elliott,-6.21852198,106.83262798
259,Jerry Mendoza,-6.28136847,106.65702839
260,Arthur Martinez,-6.23414628,106.85050459
261,Willie Kelly,-6.26846121,106.76529985
262,Walter Carr,-6.29121891,106.75542444
263,Denise Kelley,-6.26862547,106.8985484
264,Phillip Armstrong,-6.1753641,106.87192534
265,Alice Ruiz,-6.30540309,106.86141723
266,Juan Jones,-6.17280702,106.7286726
267,Virginia Fuller,-6.20105647,106.84861236
268,Shirley Torres,-6.33476802,106.86949926
269,Mildred Webb,-6.18397287,106.88754979
270,David Robertson,-6.22383698,106.83206942
271,Nancy Stewart,-6.25302065,106.77672469
272,Evelyn Graham,-6.35937382,106.72808286
273,Carl White,-6.14418524,106.73685371
274,Henry Cunningham,-6.22216034,106.77180312
275,Ronald Pierce,-6.29774937,106.7256115
276,Katherine Pierce,-6.14897647,106.7970162
277,Sara Nguyen,-6.25309208,106.82453461
278,Gregory Scott,-6.33829518,106.80029176
279,Elizabeth Snyder,-6.19741193,106.7726854
280,Edward Castillo,-6.36207494,106.81871259
281,Donald Larson,-6.21932093,106.74901055
282,Linda Wallace,-6.27196712,106.8348472
283,Kevin Scott,-6.23728062,106.68875205
284,Samuel Gomez,-6.21944886,106.74577964
285,Marilyn Dixon,-6.24282947,106.79647723
286,Joshua Brooks,-6.25466084,106.69280526
287,Joshua Jones,-6.30260725,106.67241191
288,Karen Cox,-6.22415593,106.84925267
289,Anne Rice,-6.27963006,106.88298206
290,Larry Meyer,-6.23010758,106.69507532
291,Jeffrey Watson,-6.21086255,106.89531393
292,Gary Garza,-6.21669627,106.69498543
293,Marie Williamson,-6.31619477,106.86295233
294,John Edwards,-6.36599565,106.81071473
295,Julie Mills,-6.24836814,106.789287
296,Ashley Smith,-6.31559551,106.67401808
297,Rose Barnes,-6.32328143,106.81024897
298,Charles Marshall,-6.28298359,106.71838085
299,David Pierce,-6.24564621,106.86456877
300,Carol Austin,-6.32119357,106.82454476
301,Amanda Smith,-6.1783424,106.88196073
302,Doris Wallace,-6.14380376,106.77043047
303,Joyce Wilson,-6.31019365,106.73001626
304,Rebecca Rose,-6.24821183,106.77046557
305,Chris Howell,-6.25073248,106.89649817
306,Jane Rogers,-6.29207871,106.72255329
307,Jean Ruiz,-6.11814304,106.76796409
308,Karen Dunn,-6.23393881,106.85309628
309,Jack Fields,-6.25364982,106.74577116
310,Ernest Montgomery,-6.27713194,106.79908231
311,Theresa Wilson,-6.27964121,106.86638393
312,Marie Russell,-6.3579054,106.81171707
313,Steve Garza,-6.22812451,106.82005344
314,Raymond Shaw,-6.33238771,106.68287759
315,Christina Lynch,-6.18884495,106.73550013
316,Roy Cook,-6.32748666,106.84701917
317,George Jacobs,-6.35341037,106.72062081
318,Beverly Clark,-6.11814164,106.77219127
319,Sarah Ross,-6.249916,106.75116705
320,Katherine Graham,-6.27171989,106.73123639
321,Melissa Cox,-6.17973687,106.85761121
322,Brandon Vasquez,-6.25909676,106.7304013
323,Peter Dixon,-6.27164875,106.79531939
324,Elizabeth Green,-6.26236808,106.87024207
325,Sean Murphy,-6.33430183,106.76974534
326,Samuel Andrews,-6.20499711,106.82491863
327,Michael Riley,-6.29413789,106.86030353
328,Billy Long,-6.26664814,106.73448284
329,Angela Watkins,-6.30491837,106.7764615
330,Linda Franklin,-6.33771489,106.7806287
331,Michelle Knight,-6.21169483,106.81318157
332,Stephanie Hunt,-6.35481794,106.72178536
333,Shawn Dean,-6.17977162,106.85619979
334,Daniel Perkins,-6.24240846,106.70410507
335,Debra Campbell,-6.29566719,106.89037498
336,Earl Williams,-6.27068403,106.77074363
337,James Peterson,-6.10829601,106.77570039
338,Wayne Carr,-6.29648715,106.77997928
339,Anne Stephens,-6.15366671,106.74806181
340,Irene Ross,-6.24002158,106.81283079
341,Philip Woods,-6.12084074,106.74153718
342,Thomas Jackson,-6.32168569,106.76816123
343,Laura James,-6.28096836,106.85714361
344,Karen Baker,-6.13124685,106.71139325
345,Russell Burke,-6.24681322,106.80346593
346,Aaron Black,-6.11675334,106.8062493
347,Mark Hughes,-6.18624539,106.84476727
348,Jesse Hawkins,-6.34165577,106.80061212
349,Barbara Daniels,-6.17487332,106.7411063
350,Doris Simmons,-6.26758892,106.88445118
351,Laura Morris,-6.18376272,106.68492578
352,Jonathan Diaz,-6.31672822,106.75402267
353,Scott Marshall,-6.12758199,106.8135557
354,Aaron Price,-6.12510675,106.80592528
355,Earl Morgan,-6.23842693,106.87632507
356,Matthew Hunter,-6.3040437,106.83354144
357,Angela Torres,-6.19122767,106.77131961
358,Beverly Bell,-6.27783738,106.83598476
359,Shawn Mccoy,-6.1844537,106.71878328
360,Joyce Murphy,-6.21181269,106.86071529
361,Ann Little,-6.25436068,106.89902581
362,Ernest Gonzales,-6.3505062,106.85117799
363,Roy King,-6.29645065,106.78134886
364,Paula Gutierrez,-6.30746912,106.70370593
365,Mark Marshall,-6.1668335,106.86315092
366,Paula Diaz,-6.22476993,106.71953174
367,Robin Ramirez,-6.18744276,106.82089809
368,Debra Garcia,-6.3184519,106.70292018
369,Keith Hayes,-6.17395786,106.88958903
370,Kevin Morgan,-6.3373942,106.85226059
371,Anna Daniels,-6.29176129,106.78018795
372,Rachel Burke,-6.22825861,106.90566628
373,Donald Richards,-6.34007683,106.85709265
374,Tina Holmes,-6.19588068,106.73851574
375,Earl Cruz,-6.19925257,106.72747482
376,Keith Wagner,-6.22165586,106.82899381
377,Pamela Clark,-6.32191351,106.76860243
378,Jerry Robertson,-6.2463816,106.87795303
379,Nicholas Carter,-6.29626641,106.86699429
380,Laura Larson,-6.17985272,106.69881934
381,Jerry Anderson,-6.16834572,106.86206455
382,Jerry George,-6.15626756,106.71176477
383,Carol Watson,-6.33619493,106.8181818
384,Sandra Hughes,-6.24753057,106.90572257
385,Bonnie George,-6.16661162,106.83227515
386,Carol Simpson,-6.21563933,106.66380858
387,Annie Jordan,-6.16726281,106.84658387
388,Jose Bailey,-6.28321459,106.70905516
389,Larry Wagner,-6.36375607,106.78924171
390,Charles Jenkins,-6.21350172,106.77114386
391,Emily Wallace,-6.31134504,106.75185618
392,Stephen Ortiz,-6.20209218,106.83627935
393,David Porter,-6.1364823,106.82292961
394,Timothy Scott,-6.1996193,106.69816449
395,Bruce Chapman,-6.34278313,106.71430686
396,Benjamin Fisher,-6.23108742,106.67150527
397,Joan Olson,-6.18333546,106.85880986
398,Thomas Henry,-6.16998165,106.74825259
399,Catherine Gonzales,-6.11771957,106.81130276
400,Craig Simmons,-6.17275215,106.85545716
401,Ruth Wallace,-6.31558947,106.87062136
402,Johnny Robinson,-6.14620012,106.86926085
403,Jesse Mills,-6.30530073,106.83642345
404,Kathryn Elliott,-6.27445928,106.82427995
405,Margaret Alexander,-6.25304591,106.89166619
406,Elizabeth Stanley,-6.21583188,106.71844322
407,Bonnie Turner,-6.28574238,106.78157859
408,Annie Jordan,-6.26355563,106.67547778
409,Judy Jordan,-6.30095779,106.89028795
410,Laura Bryant,-6.17333377,106.83281972
411,Rose Ford,-6.2015127,106.90034135
412,Carolyn Pierce,-6.21208803,106.83256643
413,Jesse Gilbert,-6.30328936,106.79922885
414,Larry Evans,-6.15295557,106.81927324
415,Sara Martin,-6.20973505,106.7109843
416,Jerry Miller,-6.16612972,106.76646113
417,Bonnie Bradley,-6.15666931,106.70842976
418,Gloria Oliver,-6.20403354,106.87040675
419,Steve Perry,-6.18432176,106.76826456
420,Ralph Price,-6.26229916,106.86678436
421,Joyce Rose,-6.36118893,106.76974091
422,Aaron Marshall,-6.25741498,106.67788455
423,Kenneth Morales,-6.23878626,106.73472784
424,Cheryl Morgan,-6.26778443,106.90490813
425,Earl Medina,-6.19995464,106.69933334
426,Mark Day,-6.29894083,106.81154201
427,Angela Daniels,-6.16330591,106.75695662
428,Patricia Adams,-6.28578938,106.83487617
429,Louise Chapman,-6.31255174,106.78464723
430,Matthew White,-6.19217545,106.84594255
431,Willie Diaz,-6.26553809,106.64921543
432,Jane Cox,-6.21270824,106.78844834
433,Patrick Jacobs,-6.19656883,106.70351755
434,Victor Simpson,-6.32154152,106.74532212
435,Kathy Carter,-6.29849102,106.69322905
436,Fred Myers,-6.1498558,106.80208684
437,William Richards,-6.26834225,106.85258854
438,Albert Hamilton,-6.30699889,106.71617492
439,Alan Chapman,-6.30695366,106.78411412
440,Heather Ramirez,-6.24076568,106.77109084
441,Gloria Mills,-6.32968852,106.77813368
442,Carlos Richardson,-6.26911842,106.69575544
443,Thomas Gray,-6.31200079,106.69734597
444,Judith Medina,-6.17662221,106.7701286
445,Robin Edwards,-6.36420453,106.73747059
446,Eugene Franklin,-6.1434387,106.71142401
447,Gary Jackson,-6.14891495,106.69645991
448,Aaron Cruz,-6.24485449,106.79949501
449,Paula Ryan,-6.27263231,106.74075677
450,Angela Payne,-6.30705002,106.67759057
451,Jose Griffin,-6.26703702,106.73556695
452,Joe Griffin,-6.24655626,106.84715109
453,Richard Hernandez,-6.24116849,106.85908047
454,Henry Ramirez,-6.32690303,106.84861517
455,William Collins,-6.32061368,106.84938616
456,Amanda Hunter,-6.27239125,106.88848402
457,Susan Baker,-6.11263211,106.80859516
458,Andrea Jenkins,-6.25703736,106.77926154
459,Jesse Dixon,-6.32776181,106.68064934
460,Randy Reed,-6.33461678,106.78859436
461,Roger Martinez,-6.21836267,106.67302237
462,Gregory Holmes,-6.26415739,106.89513323
463,George Perry,-6.14706623,106.7100032
464,Evelyn Reed,-6.2040279,106.77526748
465,Frances Jenkins,-6.13720176,106.733584
466,Emily Welch,-6.11221924,106.81277078
467,Michelle Butler,-6.27587302,106.73779369
468,Jane Palmer,-6.28789847,106.76762264
469,Irene Lawson,-6.18288024,106.89303983
470,Brandon Burton,-6.22538659,106.69997043
471,Joe Bennett,-6.17136406,106.70688292
472,Jimmy Flores,-6.35288295,106.83406352
473,Emily Ortiz,-6.19900827,106.8681889
474,Andrew Cruz,-6.14617069,106.70339579
475,Bobby Garza,-6.34489938,106.83832333
476,Ronald Robinson,-6.21485805,106.90798327
477,Shirley Lane,-6.16226658,106.78170692
478,Diane Ray,-6.34777229,106.78818982
479,Sean Holmes,-6.11488089,106.74937307
480,Lois Ferguson,-6.29810509,106.68457625
481,Kathleen Sullivan,-6.23519651,106.84400171
482,Ronald Hayes,-6.25911282,106.90499832
483,Nicole Hunt,-6.32950668,106.77159251
484,Annie Flores,-6.12524657,106.81588529
485,Justin Mitchell,-6.30384267,106.68594446
486,Deborah Reynolds,-6.26358979,106.88254971
487,Karen Shaw,-6.10871337,106.78328729
488,Dennis James,-6.22543391,106.7819291
489,Robert Johnston,-6.19172696,106.85593662
490,Justin Spencer,-6.11428326,106.78636403
491,Brenda Price,-6.28600304,106.69298764
492,Karen Riley,-6.22492457,106.69163733
493,Eric Price,-6.24991048,106.65895756
494,Tammy Morrison,-6.26428725,106.89744936
495,Billy Watson,-6.31819347,106.72788959
496,Frances Vasquez,-6.17712405,106.89650068
497,Charles Lane,-6.156107,106.88110443
498,Richard Richards,-6.11771912,106.74446384
499,Joe Graham,-6.19347467,106.70604252
500,Cynthia Cole,-6.30713095,106.89855472
501,Kevin Lane,-6.31889633,106.6805861
502,Rose Black,-6.36195818,106.78764892
503,Kenneth Campbell,-6.33191586,106.80660571
504,Ryan Fisher,-6.17572338,106.87896786
505,Eugene Jackson,-6.32174957,106.73669974
506,Edward Wood,-6.16213361,106.75654025
507,Janice Fields,-6.14138657,106.81850475
508,Victor Wagner,-6.28874055,106.90780664
509,Jack Moore,-6.23651953,106.65931936
510,Lori Mcdonald,-6.14140648,106.80907024
511,Laura Reynolds,-6.31495805,106.67862168
512,Teresa Gardner,-6.30221996,106.87994742
513,Jane Perry,-6.13910596,106.84816027
514,Carol Bell,-6.31011613,106.70451738
515,Carolyn Simpson,-6.24892304,106.65250363
516,Scott Fields,-6.17381788,106.67951033
517,George Peterson,-6.19597616,106.73128613
518,James Meyer,-6.16229883,106.88757376
519,Joan Garcia,-6.13170075,106.82108301
520,Jerry Hamilton,-6.25462064,106.7483627
521,Jane Martin,-6.27419359,106.86298136
522,Larry Meyer,-6.3125962,106.88326428
523,Victor Cox,-6.23978605,106.88198512
524,Ashley Brown,-6.31775831,106.78569511
525,Carl Gomez,-6.14988305,106.74984979
526,Evelyn Welch,-6.16291913,106.74052197
527,Marie Cruz,-6.13886726,106.78120642
528,Linda Bryant,-6.31175335,106.67813742
529,Albert Gomez,-6.21153575,106.65905375
530,Dennis Robinson,-6.205245,106.80501641
531,Kimberly Sullivan,-6.22203155,106.78333151
532,Aaron Burke,-6.32278485,106.8251568
533,William George,-6.17803954,106.6740249
534,Keith Davis,-6.26225463,106.78559994
535,Mark Carroll,-6.13784378,106.7362912
536,Henry Riley,-6.2157161,106.90026862
537,Helen Patterson,-6.18996413,106.71693796
538,Judith Flores,-6.12518526,106.75261424
539,Norma Ryan,-6.28127204,106.77494946
540,Kenneth Richards,-6.22120065,106.65083266
541,Todd Castillo,-6.27116515,106.77681093
542,Dennis Hudson,-6.15779703,106.75336643
543,Roy Edwards,-6.30446381,106.71386414
544,Catherine Bryant,-6.24895761,106.67486867
545,Cheryl Cunningham,-6.27916962,106.84345306
546,Matthew Howell,-6.35669259,106.75964246
547,Stephanie Larson,-6.34167814,106.80879118
548,Christina Wright,-6.24249613,106.73268053
549,Julie Hunter,-6.3313296,106.87745339
550,Harold Clark,-6.2955425,106.70799164
551,Henry Wallace,-6.12064338,106.72686866
552,Michelle Cunningham,-6.3014738,106.78305715
553,Carlos Meyer,-6.35407018,106.71095169
554,Gregory Medina,-6.34459388,106.80995801
555,Richard Day,-6.15115083,106.79788342
556,Janet Jackson,-6.31612171,106.67363064
557,Doris Warren,-6.1873723,106.86567195
558,Katherine Bennett,-6.35936421,106.73597292
559,Kenneth Morgan,-6.3325536,106.68805506
560,Denise Adams,-6.34614083,106.83170651
561,Maria Greene,-6.30601083,106.72401755
562,Jennifer Anderson,-6.20849421,106.8085084
563,Virginia Jordan,-6.22273954,106.66415506
564,Marie Carter,-6.29816437,106.80308055
565,Lisa Mccoy,-6.29087512,106.66166265
566,Adam Lane,-6.21156336,106.74458978
567,Carl Kelley,-6.28875865,106.80018457
568,Catherine Ford,-6.31641649,106.70047092
569,Paula Ruiz,-6.27212744,106.66621815
570,Ann Bell,-6.28172644,106.88340667
571,Russell Patterson,-6.12592265,106.74140905
572,Joseph Sanders,-6.17865726,106.67748814
573,Jeremy Watson,-6.24570206,106.88236568
574,Ronald Greene,-6.34654091,106.77337158
575,Karen Powell,-6.16192848,106.78273146
576,Howard Ross,-6.35702693,106.82281523
577,Randy Hall,-6.23246201,106.68404346
578,Shirley Cole,-6.314152,106.88520274
579,Diane Grant,-6.15724484,106.6944342
580,Charles Porter,-6.15575181,106.81081446
581,Beverly Gordon,-6.25332405,106.89869619
582,Lillian Hicks,-6.235626,106.70701711
583,Beverly Stevens,-6.27287808,106.69896253
584,Cheryl Andrews,-6.25546504,106.70171355
585,Samuel Miller,-6.29428932,106.81887697
586,Louis Ford,-6.34616809,106.78116012
587,Denise Evans,-6.15570604,106.80812065
588,Frank Hicks,-6.2717747,106.82992178
589,Brian Carroll,-6.29629965,106.77452565
590,Benjamin Green,-6.24244803,106.84220055
591,Albert Roberts,-6.33815709,106.8671853
592,Rachel Taylor,-6.19061386,106.66690154
593,Melissa Clark,-6.30073253,106.66286829
594,Irene Hudson,-6.2170556,106.68148701
595,Fred Ruiz,-6.29620734,106.74799979
596,Gary Coleman,-6.29308038,106.88331587
597,Steve Foster,-6.26761573,106.71920678
598,Albert Williams,-6.26146487,106.81637657
599,Justin Bennett,-6.18198704,106.70671543
600,James Butler,-6.23511384,106.72510266
601,Gloria Palmer,-6.22898333,106.71116097
602,Stephen Jenkins,-6.28036424,106.65667945
603,Doris Fowler,-6.14442853,106.72421451
604,Sandra Ray,-6.13078479,106.74421979
605,Rose Ruiz,-6.32643438,106.85320961
606,Jacqueline Hunter,-6.29247597,106.79033981
607,Douglas Cooper,-6.28768712,106.7996238
608,Jennifer Fuller,-6.18037353,106.89209476
609,Justin Mills,-6.20380172,106.76609159
610,Virginia Edwards,-6.34279737,106.77833229
611,Andrea Frazier,-6.19575842,106.89721683
612,Joan Turner,-6.1823095,106.87733299
613,Brian Adams,-6.20421384,106.86625925
614,Alan Bowman,-6.32947439,106.73022729
615,Wayne Carroll,-6.20688804,106.90057107
616,Adam Tucker,-6.31268544,106.67716691
617,Jose Vasquez,-6.22482587,106.70066463
618,Walter Stevens,-6.21657097,106.67499938
619,Anne Bradley,-6.2316812,106.64830552
620,Samuel Watkins,-6.21846001,106.83656336
621,Daniel Dunn,-6.2816607,106.83495949
622,Sandra Graham,-6.33124833,106.76599044
623,Jose Gibson,-6.24645892,106.69944862
624,Daniel Harris,-6.14781621,106.82899969
625,Willie Hill,-6.29651735,106.74941467
626,Louise Castillo,-6.33685738,106.77660097
627,Wanda Gray,-6.14546349,106.73640487
628,Brian Washington,-6.26466693,106.74649388
629,Willie Watkins,-6.22775739,106.78251237
630,Kenneth Ford,-6.3043904,106.780144
631,Karen Dunn,-6.2594319,106.72505141
632,Kathy Armstrong,-6.21652253,106.68815585
633,Eric Franklin,-6.21517549,106.9113822
634,Frank Moore,-6.30174343,106.79876824
635,Edward Mendoza,-6.2761269,106.73648715
636,Janice Collins,-6.35686434,106.76259463
637,Christine Allen,-6.28915104,106.74676195
638,Antonio Shaw,-6.30984002,106.84872198
639,Amanda Powell,-6.27201695,106.72594519
640,Jennifer Hughes,-6.3001782,106.80692631
641,Adam Ramirez,-6.15028205,106.71725845
642,Arthur Shaw,-6.33683275,106.78028471
643,Anna Wallace,-6.11509736,106.79029424
644,Walter Wells,-6.15483342,106.72011884
645,Patrick Mcdonald,-6.20771211,106.67178874
646,James Murray,-6.17100652,106.71423512
647,Adam Vasquez,-6.22786933,106.73031738
648,Victor Reynolds,-6.1404125,106.69545881
649,Anthony Ryan,-6.17492969,106.82935786
650,Deborah Vasquez,-6.37148273,106.8201977
651,Lois Carr,-6.28002083,106.8190962
652,Anna Powell,-6.19168351,106.78272529
653,Arthur Taylor,-6.23835272,106.91077327
654,Kathy Sanchez,-6.15600534,106.69582466
655,Jason Woods,-6.25102987,106.72255195
656,Laura Pierce,-6.17715054,106.88476893
657,Frank Ferguson,-6.12772484,106.73778367
658,Jose Cole,-6.12115617,106.76687451
659,Steve Fuller,-6.28818087,106.84919682
660,Philip Bradley,-6.18754779,106.82224083
661,Laura Gardner,-6.21989578,106.76850416
662,Lisa Castillo,-6.19303625,106.87497716
663,Larry Mitchell,-6.36344008,106.77494349
664,Nicole Welch,-6.17965293,106.6773366
665,Douglas Montgomery,-6.34747742,106.82689804
666,Ruth Wood,-6.15178269,106.70811088
667,Terry Nelson,-6.21683517,106.65220538
668,Harry Gutierrez,-6.34428188,106.69788712
669,Melissa Spencer,-6.26994468,106.90671966
670,Emily Fox,-6.19348586,106.81645655
671,Carol Ryan,-6.30793432,106.81080701
672,Patricia Armstrong,-6.19239351,106.77472358
673,Beverly Gordon,-6.21778995,106.66687546
674,Alice Chapman,-6.27460338,106.82164921
675,Amanda Berry,-6.36028026,106.76138627
676,Annie Nguyen,-6.24051895,106.82185001
677,Daniel Foster,-6.22084809,106.73681204
678,Phyllis Wood,-6.16918575,106.86314244
679,Robin Gray,-6.17647689,106.8970427
680,Brian Greene,-6.30087478,106.68822063
681,Bobby Cunningham,-6.20776686,106.73337897
682,Judy Burke,-6.22931877,106.85926002
683,Margaret Nichols,-6.30965662,106.80102128
684,Carol Murphy,-6.17382281,106.75999776
685,Tina Payne,-6.24311064,106.72372245
686,Margaret Kim,-6.35824663,106.84456307
687,Stephanie Rice,-6.23465206,106.77431993
688,Lawrence Wagner,-6.19224982,106.66722963
689,James Chavez,-6.34198199,106.70490065
690,Adam Kelley,-6.25120027,106.78025136
691,Jose Hernandez,-6.20002437,106.73401422
692,Victor Mccoy,-6.32349132,106.8396821
693,Janice Stanley,-6.20178149,106.73602502
694,Elizabeth Adams,-6.17650622,106.76839885
695,Phyllis Holmes,-6.22071354,106.76705986
696,Tina Clark,-6.30597537,106.68989477
697,Willie Reynolds,-6.18347642,106.71163937
698,Jessica Oliver,-6.10891073,106.76720396
699,Daniel Larson,-6.12480207,106.74208766
700,Gary Little,-6.2196356,106.65546491
701,Steven Meyer,-6.15288243,106.86072068
702,David Burton,-6.29712105,106.66762422
703,Laura Adams,-6.30774653,106.82153812
704,Jonathan Kelley,-6.30830912,106.82533426
705,Paul Coleman,-6.21613139,106.7693052
706,James Daniels,-6.3494373,106.77537171
707,Victor Dean,-6.24514788,106.66525806
708,Brandon Ramos,-6.17613909,106.68617539
709,Billy Watkins,-6.36581016,106.753469
710,Robin Evans,-6.18403011,106.76322017
711,Deborah Welch,-6.21976325,106.83718153
712,Emily Ramirez,-6.15133358,106.78271585
713,Wayne Stephens,-6.13548211,106.77399266
714,Anthony Thompson,-6.21629565,106.8469218
715,Robert Lee,-6.1334055,106.7122701
716,Carlos Cole,-6.24442916,106.77045872
717,Diane Robinson,-6.16995431,106.8242181
718,Maria Woods,-6.18887474,106.73858601
719,Randy Bryant,-6.13795149,106.71145235
720,Ashley Green,-6.18525385,106.78918038
721,Matthew Sanders,-6.15708073,106.74366202
722,Christine Meyer,-6.22594751,106.78742069
723,Lois Wheeler,-6.14124222,106.7353148
724,Michelle Larson,-6.19952308,106.70828095
725,Scott Robinson,-6.16668268,106.70826035
726,Harold Lawson,-6.29144873,106.71321497
727,Angela Diaz,-6.31451499,106.72475202
728,Jack Hughes,-6.21278113,106.65452313
729,Virginia Campbell,-6.14002924,106.83041131
730,Betty Green,-6.23034722,106.82577482
731,Joyce Davis,-6.16208797,106.85007903
732,Joseph Ryan,-6.19024062,106.74155864
733,Irene Ross,-6.25291053,106.70188089
734,Beverly Kelley,-6.35776687,106.79498922
735,Theresa Lane,-6.24629888,106.70695135
736,Marilyn Day,-6.29881021,106.8688659
737,Wayne Ford,-6.25103598,106.91471494
738,Rebecca Mcdonald,-6.2594309,106.85076457
739,Jean Hicks,-6.24017764,106.68436806
740,Billy Day,-6.20161096,106.87235075
741,Howard Watson,-6.26169258,106.89082847
742,Patrick Ford,-6.26511627,106.83762624
743,Kathy Ortiz,-6.27685654,106.78414426
744,Dorothy Moreno,-6.22568421,106.72710979
745,Thomas Young,-6.34769606,106.8672727
746,Debra Garrett,-6.22137312,106.88801001
747,Jason Kennedy,-6.37089856,106.80598509
748,Anthony Carter,-6.188719,106.69828057
749,Clarence Stewart,-6.31823836,106.75255749
750,Craig Gardner,-6.16171149,106.74539279
751,Roy Watson,-6.19491654,106.85817552
752,Tina Banks,-6.18421653,106.79213384
753,Jeffrey Knight,-6.24550078,106.69605172
754,Susan Vasquez,-6.33893057,106.82961987
755,Stephanie Freeman,-6.24905467,106.90123788
756,Louise Murphy,-6.29568671,106.80950706
757,Michelle Fox,-6.20266659,106.85854316
758,Matthew Miller,-6.31888682,106.6925885
759,Jimmy Jones,-6.29947615,106.82843796
760,Julia Evans,-6.24211862,106.75555859
761,Walter George,-6.25250025,106.90971869
762,Maria Simpson,-6.24948781,106.64810709
763,Brian Rice,-6.23307311,106.78931486
764,Sharon Weaver,-6.14059683,106.85084344
765,Tina Lawson,-6.27563852,106.67999626
766,Thomas Murray,-6.20781538,106.90484548
767,Jane Kelly,-6.23024263,106.65488628
768,Cheryl Henderson,-6.26224133,106.83713118
769,Paul Sanders,-6.16245185,106.83260791
770,Antonio Riley,-6.27632302,106.7287882
771,Dorothy Ray,-6.21805045,106.72683631
772,Charles Romero,-6.22359953,106.69069253
773,Martha Wood,-6.21038946,106.85106924
774,Paul Holmes,-6.23134678,106.72088582
775,Tammy Elliott,-6.32315802,106.67600891
776,Shirley Simpson,-6.26725454,106.7001037
777,Amy Fernandez,-6.27245813,106.84204612
778,Carol Medina,-6.23778862,106.67424304
779,William Moreno,-6.15709131,106.70471354
780,Benjamin James,-6.27515793,106.85909831
781,Jerry Arnold,-6.11314796,106.76957175
782,Anne Long,-6.17856837,106.82054121
783,Frances King,-6.20666552,106.66251201
784,Jean Lee,-6.25275822,106.82245942
785,Lori Lynch,-6.25620912,106.82424508
786,Evelyn James,-6.12019783,106.74470229
787,Richard Holmes,-6.20990241,106.66700742
788,Matthew Alvarez,-6.3248936,106.67828565
789,Beverly Nguyen,-6.3199042,106.80238088
790,Sandra Reyes,-6.27592593,106.80708395
791,Kenneth Diaz,-6.17140531,106.70941191
792,Ruth Shaw,-6.23595776,106.84610193
793,Kathleen Gordon,-6.25122787,106.72140251
794,Lisa Harvey,-6.28431017,106.66339673
795,Anthony Harris,-6.14619392,106.75076484
796,Sean Dunn,-6.1823673,106.84738744
797,Marilyn Crawford,-6.17566551,106.82584431
798,Jesse Fields,-6.15574099,106.76998466
799,Stephanie Thompson,-6.13612676,106.71585476
800,Steven James,-6.13012298,106.74978224
801,Kelly Vasquez,-6.21789547,106.84103582
802,Chris Martin,-6.2038889,106.78025569
803,Douglas Daniels,-6.27098051,106.73260086
804,Christina Peters,-6.13281301,106.7100334
805,Cheryl Mason,-6.3507079,106.72787684
806,Nancy Dunn,-6.2223959,106.71013414
807,Michael Brown,-6.28509198,106.70553677
808,Steven Riley,-6.34756255,106.8384286
809,Wayne Porter,-6.24086676,106.66552909
810,Wanda Washington,-6.37375343,106.75076021
811,Billy Lawson,-6.24451264,106.85577255
812,Linda Williamson,-6.28237617,106.83907077
813,Ronald Dixon,-6.19641391,106.82947995
814,Jean Ruiz,-6.16917935,106.67407616
815,Albert Hall,-6.31019822,106.88795792
816,Lawrence Freeman,-6.26362956,106.69182128
817,Susan Robertson,-6.25209123,106.68050858
818,Walter Robinson,-6.15581528,106.83317387
819,Sara Young,-6.19479024,106.87551063
820,Billy Larson,-6.2901894,106.6590177
821,Julie Fisher,-6.17857136,106.70790439
822,Jack Knight,-6.29074979,106.66692191
823,George Harrison,-6.14395098,106.8199394
824,Peter Garrett,-6.31676433,106.68830479
825,Norma Fuller,-6.21436746,106.72505948
826,Julie Vasquez,-6.19260374,106.7348938
827,Lori Hudson,-6.34021515,106.74299034
828,Deborah Scott,-6.29084351,106.84292985
829,Brian James,-6.32611196,106.85121687
830,Kelly Johnston,-6.13391768,106.79300166
831,Fred Graham,-6.2406251,106.70473255
832,Lillian Lee,-6.31406758,106.87135871
833,Martin Stephens,-6.14722209,106.82223533
834,Bonnie Brown,-6.19486447,106.7853638
835,Carolyn Hernandez,-6.30480382,106.82140238
836,Ryan Murphy,-6.30713283,106.89284313
837,Randy Howard,-6.32244971,106.85675164
838,Evelyn Carr,-6.2865411,106.70690095
839,Carolyn Harvey,-6.22206187,106.89670008
840,Norma James,-6.16018616,106.81940693
841,Donna Schmidt,-6.16226849,106.85393163
842,Jesse Montgomery,-6.31211414,106.81929183
843,Kathy Murphy,-6.21340357,106.8221273
844,Jack Carpenter,-6.28225729,106.83141032
845,Michelle Lawson,-6.29715059,106.83101831
846,Heather Patterson,-6.25558395,106.76355713
847,Dennis Johnson,-6.27780411,106.8321983
848,Dennis James,-6.17789021,106.82779518
849,Daniel Fields,-6.22172792,106.65707191
850,Gloria Peterson,-6.33948569,106.7586413
851,Anna Matthews,-6.32603416,106.71793002
852,Willie Sims,-6.21720079,106.71490408
853,Louise Black,-6.18419525,106.71843666
854,Justin Gomez,-6.22803937,106.90563553
855,Robert Pierce,-6.35495394,106.76656842
856,Brenda Warren,-6.29608028,106.73310619
857,Marilyn Phillips,-6.31026541,106.69161096
858,Charles Ramos,-6.2356003,106.71763
859,Clarence Stone,-6.1270745,106.84062829
860,Jennifer Perez,-6.16513495,106.68779311
861,Joan Fox,-6.29440547,106.83369912
862,Annie Matthews,-6.18624805,106.84775559
863,William Mills,-6.35506583,106.77876228
864,Keith Peters,-6.34290132,106.69283677
865,Sharon White,-6.21444572,106.74940487
866,Benjamin Welch,-6.20892294,106.80808669
867,Lori Martin,-6.25810555,106.79886602
868,Phillip Kennedy,-6.14698003,106.81364494
869,Denise Griffin,-6.21518594,106.68954958
870,Daniel Robertson,-6.36184228,106.77205643
871,Tina King,-6.24905428,106.65140937
872,Joan Fernandez,-6.21425106,106.78861689
873,Tina Mcdonald,-6.31005456,106.79069934
874,Sandra Hunter,-6.35843236,106.74097555
875,Kenneth Johnston,-6.17350905,106.81351565
876,Christine Henderson,-6.11324644,106.76902847
877,Christopher Ray,-6.19454289,106.73034176
878,Randy Lewis,-6.1769128,106.71592211
879,Amy Robinson,-6.34151503,106.73531533
880,Frank Henderson,-6.12977272,106.82835064
881,Martin Woods,-6.26620471,106.73038438
882,Dorothy Franklin,-6.25646107,106.77425098
883,Diane Rivera,-6.20459818,106.68284002
884,Donald Nichols,-6.24290415,106.66363838
885,Janet Fisher,-6.16342882,106.75827575
886,Arthur Gomez,-6.17342804,106.82001376
887,Jose Roberts,-6.26220674,106.78583953
888,Beverly Mills,-6.180167,106.76604772
889,Mildred Olson,-6.26015749,106.69102972
890,Diane Kelley,-6.21355159,106.66587877
891,Kathy Gordon,-6.25073123,106.90716031
892,Lillian Weaver,-6.32856041,106.69783828
893,Theresa Fowler,-6.12858302,106.85136598
894,Jerry Riley,-6.28969774,106.83408217
895,Shirley Hudson,-6.32578504,106.79965661
896,Jane Arnold,-6.37477022,106.79788668
897,Rebecca Watkins,-6.27622298,106.76296589
898,Melissa Ruiz,-6.33002638,106.74356361
899,Phyllis Berry,-6.27162431,106.79631846
900,Emily Washington,-6.25067374,106.76954178
901,Robert Rice,-6.33941605,106.81710183
902,Maria Torres,-6.16232705,106.79614088
903,Jack Wilson,-6.27119656,106.8338432
904,Sarah Richards,-6.24541233,106.76647754
905,Andrea Coleman,-6.22474072,106.83036951
906,Douglas Diaz,-6.22735012,106.85604145
907,Cheryl Ruiz,-6.25029965,106.72076945
908,Stephen Jackson,-6.25361751,106.80649392
909,Amy Reid,-6.31953812,106.74479306
910,Charles Ross,-6.28359372,106.77734392
911,Ruby Bennett,-6.16180818,106.85111092
912,Kathy Bennett,-6.34544536,106.77659734
913,Nicholas Evans,-6.17611398,106.84385655
914,Sharon Gonzales,-6.20317177,106.80121991
915,Katherine Miller,-6.22610173,106.69017902
916,Louis Cruz,-6.30590315,106.79174155
917,Nicole Gomez,-6.24977897,106.72472253
918,Laura Powell,-6.1660439,106.75296456
919,Ruby Adams,-6.16419831,106.77812727
920,Dennis Edwards,-6.25471723,106.91375447
921,Gloria Welch,-6.18471218,106.8727585
922,Victor Austin,-6.25335464,106.73238635
923,Donald Price,-6.17684862,106.7227514
924,Christine Watkins,-6.34120033,106.8233463
925,Doris Gardner,-6.23321767,106.88050955
926,Kathryn Burns,-6.1738832,106.69316381
927,Adam Gordon,-6.13934276,106.78297941
928,Susan Bennett,-6.17708163,106.68993012
929,Jeremy Castillo,-6.1592692,106.87951308
930,Gloria Russell,-6.34179737,106.73186779
931,Clarence Chavez,-6.30391355,106.77990765
932,Clarence Reid,-6.26756075,106.65942829
933,Ernest Stone,-6.22097602,106.70056569
934,Ashley Adams,-6.13576075,106.8153549
935,Johnny Anderson,-6.25783751,106.77169575
936,Shawn Stone,-6.24787886,106.8202384
937,Marilyn Meyer,-6.1455377,106.72183237
938,Victor Lewis,-6.22733415,106.8577446
939,Debra Welch,-6.24484048,106.89472666
940,Joseph Pierce,-6.26310008,106.79051235
941,Gerald Cole,-6.26039659,106.75766976
942,Jonathan Murphy,-6.1877185,106.87581294
943,Fred Andrews,-6.20751129,106.86702157
944,Daniel Allen,-6.21020621,106.79367367
945,James Williamson,-6.25304252,106.7998117
946,Stephanie Miller,-6.27872919,106.78408477
947,Pamela Wagner,-6.27016389,106.75790584
948,Adam Walker,-6.27861784,106.7565693
949,Roy Reynolds,-6.22745386,106.81354105
950,Louis Walker,-6.20953738,106.76005513
951,Justin Morales,-6.2536063,106.73191618
952,Jacqueline Hicks,-6.36710978,106.73409769
953,Roy Lewis,-6.202161,106.70736117
954,Jimmy Johnson,-6.25725889,106.89931425
955,Jessica Williams,-6.31290812,106.70709842
956,Fred Stewart,-6.17354444,106.77357655
957,Ann Hamilton,-6.21334577,106.70349886
958,Wayne Garza,-6.28525486,106.77156419
959,Paul Evans,-6.33087971,106.77488903
960,John Schmidt,-6.13283405,106.79789258
961,James Phillips,-6.30479471,106.81610989
962,Lisa Robinson,-6.23699273,106.71725396
963,Terry Kennedy,-6.33222769,106.77140964
964,Kathryn Matthews,-6.20856588,106.86383603
965,Mildred Howell,-6.13211249,106.85177704
966,Christine Gilbert,-6.37017481,106.81663336
967,Ryan Powell,-6.12109292,106.83378013
968,Laura Armstrong,-6.25565896,106.68890636
969,Mildred Wright,-6.24617483,106.78297076
970,Douglas Roberts,-6.279819,106.83917115
971,Lois Snyder,-6.28240123,106.90692568
972,Frances Chapman,-6.16990415,106.73369277
973,Betty Kennedy,-6.1262794,106.81964837
974,Lori Meyer,-6.24938066,106.68045493
975,Daniel Grant,-6.32764127,106.75959342
976,Lillian Fernandez,-6.23404951,106.89053658
977,Charles Williamson,-6.3510004,106.74190083
978,Jeffrey Larson,-6.18500115,106.77833752
979,Jonathan Baker,-6.20467606,106.84853492
980,Mary Griffin,-6.2210131,106.7601176
981,Nicholas Black,-6.18430922,106.89718507
982,Kathleen Campbell,-6.2365046,106.84181653
983,Jesse Rivera,-6.31065159,106.89458174
984,Gloria Allen,-6.17014735,106.77449917
985,Sharon Moore,-6.12852317,106.76695058
986,Billy Gonzales,-6.24255177,106.80988329
987,Kimberly Banks,-6.27241979,106.68842931
988,Phillip Duncan,-6.28633064,106.7207217
989,Harold Meyer,-6.33164317,106.85119371
990,Rachel Dixon,-6.16683555,106.8094306
991,Linda White,-6.2635271,106.66878664
992,Irene Kim,-6.26027761,106.87085776
993,Kimberly Lopez,-6.16828428,106.77439267
994,Christine Lane,-6.26453278,106.90099537
995,Antonio Oliver,-6.15225577,106.68893113
996,Jerry Reynolds,-6.37023445,106.73848983
997,Virginia Hernandez,-6.15413749,106.76065122
998,Victor Wright,-6.21173702,106.80707919
999,Dorothy Ferguson,-6.13088829,106.80001439
1000,Cynthia Coleman,-6.11618322,106.73864542
